%time,field.header.seq,field.header.stamp,field.header.frame_id,field.name0,field.name1,field.name2,field.name3,field.name4,field.position0,field.position1,field.position2,field.position3,field.position4,field.velocity0,field.velocity1,field.velocity2,field.velocity3,field.velocity4,field.effort0,field.effort1,field.effort2,field.effort3,field.effort4
5616048000000,280781,5616048000000,,end,joint2,joint4,joint6,motortom2m,-7.522450814967385e-05,6.260665375990015e-05,0.0001080859591322536,5.031883254602576e-05,0.00012013645478869961,1.2018710891760107e-12,-7.129286319541404e-13,-3.0235666008010657e-13,1.4110836769734548e-13,-8.931559748946166e-13,0.0,0.0,0.0,0.0,0.0
5616068000000,280782,5616068000000,,end,joint2,joint4,joint6,motortom2m,-7.522450814967385e-05,6.260665375990015e-05,0.00010808595913047725,5.031883254602576e-05,0.00012013645478958779,1.2018710912692014e-12,-7.129286283517274e-13,-3.023566566401205e-13,1.411083707049958e-13,-8.9315597148403e-13,0.0,0.0,0.0,0.0,0.0
5616088000000,280783,5616088000000,,end,joint2,joint4,joint6,motortom2m,-7.522450814967385e-05,6.260665375990015e-05,0.00010808595913047725,5.031883254602576e-05,0.00012013645478869961,1.2018710903663414e-12,-7.129286299042785e-13,-3.023566581229409e-13,1.4110836940820177e-13,-8.931559729537535e-13,0.0,0.0,0.0,0.0,0.0
5616108000000,280784,5616108000000,,end,joint2,joint4,joint6,motortom2m,-7.522450814967385e-05,6.260665376078833e-05,0.00010808595913047725,5.031883254602576e-05,0.00012013645479047597,1.2018710903076495e-12,-7.129286301057731e-13,-3.0235665830184456e-13,1.4110836926735084e-13,-8.93155973150907e-13,0.0,0.0,0.0,0.0,0.0
5616128000000,280785,5616128000000,,end,joint2,joint4,joint6,motortom2m,-7.522450815056203e-05,6.260665376078833e-05,0.0001080859591322536,5.031883254513758e-05,0.00012013645478958779,1.201871090132957e-12,-7.129286304611453e-13,-3.0235665863286645e-13,1.411083689869451e-13,-8.931559734919608e-13,0.0,0.0,0.0,0.0,0.0
5616148000000,280786,5616148000000,,end,joint2,joint4,joint6,motortom2m,-7.522450814967385e-05,6.260665375901198e-05,0.0001080859591322536,5.031883254602576e-05,0.00012013645479047597,1.201871088798298e-12,-7.129286325012323e-13,-3.023566606169064e-13,1.4110836721195767e-13,-8.931559754050399e-13,0.0,0.0,0.0,0.0,0.0
5616168000000,280787,5616168000000,,end,joint2,joint4,joint6,motortom2m,-7.522450814967385e-05,6.260665375901198e-05,0.0001080859591322536,5.031883254602576e-05,0.00012013645478958779,1.201871088716814e-12,-7.129286325915933e-13,-3.0235666071000845e-13,1.4110836712286229e-13,-8.93155975487356e-13,0.0,0.0,0.0,0.0,0.0
5616188000000,280788,5616188000000,,end,joint2,joint4,joint6,motortom2m,-7.522450814967385e-05,6.260665375901198e-05,0.0001080859591322536,5.031883254602576e-05,0.00012013645478869961,1.201871087753143e-12,-7.129286342498766e-13,-3.0235666229345044e-13,1.4110836573840327e-13,-8.931559770574233e-13,0.0,0.0,0.0,0.0,0.0
5616208000000,280789,5616208000000,,end,joint2,joint4,joint6,motortom2m,-7.522450814967385e-05,6.260665375990015e-05,0.0001080859591322536,5.031883254602576e-05,0.00012013645478958779,1.2018710901255218e-12,-7.129286303192163e-13,-3.0235665851920827e-13,1.411083690618825e-13,-8.931559733465296e-13,0.0,0.0,0.0,0.0,0.0
5616228000000,280790,5616228000000,,end,joint2,joint4,joint6,motortom2m,-7.522450814967385e-05,6.260665375990015e-05,0.0001080859591322536,5.031883254513758e-05,0.00012013645478869961,1.2018710901717746e-12,-7.129286300859119e-13,-3.023566583180283e-13,1.411083692137192e-13,-8.931559731146805e-13,0.0,0.0,0.0,0.0,0.0
5616248000000,280791,5616248000000,,end,joint2,joint4,joint6,motortom2m,-7.522450814967385e-05,6.260665375990015e-05,0.0001080859591322536,5.031883254602576e-05,0.00012013645478958779,1.2018710905301959e-12,-7.129286296188777e-13,-3.0235665785161556e-13,1.4110836964443332e-13,-8.931559726827352e-13,0.0,0.0,0.0,0.0,0.0
5616268000000,280792,5616268000000,,end,joint2,joint4,joint6,motortom2m,-7.522450814967385e-05,6.260665375990015e-05,0.0001080859591322536,5.031883254602576e-05,0.00012013645478958779,1.2018710889393585e-12,-7.129286324112912e-13,-3.02356660509713e-13,1.411083673294034e-13,-8.931559753308114e-13,0.0,0.0,0.0,0.0,0.0
5616288000000,280793,5616288000000,,end,joint2,joint4,joint6,motortom2m,-7.522450814967385e-05,6.260665375990015e-05,0.0001080859591322536,5.031883254602576e-05,0.00012013645479047597,1.2018710898093871e-12,-7.129286309681551e-13,-3.0235665912361376e-13,1.4110836855009397e-13,-8.931559739685993e-13,0.0,0.0,0.0,0.0,0.0
5616308000000,280794,5616308000000,,end,joint2,joint4,joint6,motortom2m,-7.522450815056203e-05,6.260665376078833e-05,0.0001080859591322536,5.031883254602576e-05,0.00012013645478869961,1.2018710897319488e-12,-7.129286309464938e-13,-3.023566591252324e-13,1.411083685243823e-13,-8.931559739367809e-13,0.0,0.0,0.0,0.0,0.0
5616328000000,280795,5616328000000,,end,joint2,joint4,joint6,motortom2m,-7.522450814967385e-05,6.260665376078833e-05,0.00010808595913136543,5.031883254513758e-05,0.00012013645478958779,1.2018710893982156e-12,-7.129286315182505e-13,-3.0235665967186224e-13,1.4110836804576018e-13,-8.931559744776611e-13,0.0,0.0,0.0,0.0,0.0
5616348000000,280796,5616348000000,,end,joint2,joint4,joint6,motortom2m,-7.522450814967385e-05,6.260665376078833e-05,0.0001080859591322536,5.031883254602576e-05,0.00012013645478869961,1.2018710913490526e-12,-7.129286283148439e-13,-3.0235665659141357e-13,1.4110837076306606e-13,-8.931559714557825e-13,0.0,0.0,0.0,0.0,0.0
5616368000000,280797,5616368000000,,end,joint2,joint4,joint6,motortom2m,-7.522450814967385e-05,6.260665375901198e-05,0.0001080859591322536,5.031883254602576e-05,0.00012013645478958779,1.2018710910768516e-12,-7.129286286797719e-13,-3.023566569544374e-13,1.411083704292486e-13,-8.931559717938906e-13,0.0,0.0,0.0,0.0,0.0
5616388000000,280798,5616388000000,,end,joint2,joint4,joint6,motortom2m,-7.522450814967385e-05,6.260665375901198e-05,0.00010808595913047725,5.031883254602576e-05,0.00012013645479047597,1.2018710903545153e-12,-7.129286299262788e-13,-3.023566581434304e-13,1.4110836939076857e-13,-8.93155972974752e-13,0.0,0.0,0.0,0.0,0.0
5616408000000,280799,5616408000000,,end,joint2,joint4,joint6,motortom2m,-7.522450814967385e-05,6.260665375990015e-05,0.00010808595913047725,5.031883254602576e-05,0.00012013645478958779,1.201871089728729e-12,-7.129286310025883e-13,-3.0235665917150784e-13,1.4110836849175936e-13,-8.931559739937278e-13,0.0,0.0,0.0,0.0,0.0
5616428000000,280800,5616428000000,,end,joint2,joint4,joint6,motortom2m,-7.522450814967385e-05,6.260665375990015e-05,0.0001080859591322536,5.031883254602576e-05,0.00012013645478958779,1.2018710901658046e-12,-7.129286302503163e-13,-3.023566584532057e-13,1.4110836911972172e-13,-8.931559732813413e-13,0.0,0.0,0.0,0.0,0.0
5616448000000,280801,5616448000000,,end,joint2,joint4,joint6,motortom2m,-7.522450814967385e-05,6.260665375990015e-05,0.0001080859591322536,5.031883254602576e-05,0.00012013645478869961,1.2018710890819424e-12,-7.12928631966247e-13,-3.023566601119514e-13,1.4110836764664795e-13,-8.93155974895897e-13,0.0,0.0,0.0,0.0,0.0
5616468000000,280802,5616468000000,,end,joint2,joint4,joint6,motortom2m,-7.522450814967385e-05,6.260665375990015e-05,0.0001080859591322536,5.031883254602576e-05,0.00012013645478958779,1.2018710899248531e-12,-7.129286306638652e-13,-3.023566588483583e-13,1.4110836877390227e-13,-8.931559736727512e-13,0.0,0.0,0.0,0.0,0.0
5616488000000,280803,5616488000000,,end,joint2,joint4,joint6,motortom2m,-7.522450815056203e-05,6.260665375990015e-05,0.0001080859591322536,5.031883254513758e-05,0.00012013645478869961,1.2018710911101856e-12,-7.129286286258783e-13,-3.0235665690175595e-13,1.4110837047636093e-13,-8.931559717436474e-13,0.0,0.0,0.0,0.0,0.0
5616508000000,280804,5616508000000,,end,joint2,joint4,joint6,motortom2m,-7.522450814967385e-05,6.260665376078833e-05,0.0001080859591322536,5.031883254602576e-05,0.00012013645478958779,1.2018710906711708e-12,-7.129286294809553e-13,-3.023566577050204e-13,1.4110836978936482e-13,-8.931559725597391e-13,0.0,0.0,0.0,0.0,0.0
5616528000000,280805,5616528000000,,end,joint2,joint4,joint6,motortom2m,-7.522450814967385e-05,6.260665376078833e-05,0.0001080859591322536,5.031883254602576e-05,0.00012013645479047597,1.2018710916976298e-12,-7.12928627765047e-13,-3.0235665605953886e-13,1.4110837123582704e-13,-8.931559709385393e-13,0.0,0.0,0.0,0.0,0.0
5616548000000,280806,5616548000000,,end,joint2,joint4,joint6,motortom2m,-7.522450814967385e-05,6.260665376078833e-05,0.0001080859591322536,5.031883254602576e-05,0.00012013645478958779,1.2018710887931455e-12,-7.129286326129329e-13,-3.0235666070927073e-13,1.4110836714734772e-13,-8.93155975518287e-13,0.0,0.0,0.0,0.0,0.0
5616568000000,280807,5616568000000,,end,joint2,joint4,joint6,motortom2m,-7.522450814967385e-05,6.260665376078833e-05,0.0001080859591322536,5.031883254602576e-05,0.00012013645479047597,1.2018710898819714e-12,-7.129286308938663e-13,-3.0235665904581597e-13,1.4110836862604939e-13,-8.931559739017978e-13,0.0,0.0,0.0,0.0,0.0
5616588000000,280808,5616588000000,,end,joint2,joint4,joint6,motortom2m,-7.522450815056203e-05,6.260665375901198e-05,0.0001080859591322536,5.031883254513758e-05,0.00012013645478869961,1.2018710905196081e-12,-7.129286294868349e-13,-3.023566577460557e-13,1.4110836971361175e-13,-8.931559725473391e-13,0.0,0.0,0.0,0.0,0.0
5616608000000,280809,5616608000000,,end,joint2,joint4,joint6,motortom2m,-7.522450814967385e-05,6.260665375990015e-05,0.0001080859591322536,5.031883254602576e-05,0.00012013645478958779,1.201871090380785e-12,-7.12928629828206e-13,-3.0235665805775176e-13,1.4110836945716072e-13,-8.931559728777716e-13,0.0,0.0,0.0,0.0,0.0
5616627000000,280810,5616628000000,,end,joint2,joint4,joint6,motortom2m,-7.522450814967385e-05,6.260665375990015e-05,0.0001080859591322536,5.031883254602576e-05,0.00012013645478869961,1.20187108842236e-12,-7.129286330997298e-13,-3.02356661194916e-13,1.411083666992826e-13,-8.9315597596866e-13,0.0,0.0,0.0,0.0,0.0
5616648000000,280811,5616648000000,,end,joint2,joint4,joint6,motortom2m,-7.522450814967385e-05,6.260665375990015e-05,0.0001080859591322536,5.031883254602576e-05,0.00012013645479047597,1.201871090186249e-12,-7.129286303173295e-13,-3.023566585029359e-13,1.4110836909213274e-13,-8.931559733519276e-13,0.0,0.0,0.0,0.0,0.0
5616668000000,280812,5616668000000,,end,joint2,joint4,joint6,motortom2m,-7.522450814967385e-05,6.260665375990015e-05,0.0001080859591322536,5.031883254602576e-05,0.00012013645478958779,1.2018710889377758e-12,-7.129286323627248e-13,-3.0235666047062953e-13,1.4110836735550542e-13,-8.931559752811885e-13,0.0,0.0,0.0,0.0,0.0
5616688000000,280813,5616688000000,,end,joint2,joint4,joint6,motortom2m,-7.522450814967385e-05,6.260665375990015e-05,0.00010808595913314178,5.031883254602576e-05,0.00012013645479047597,1.2018710905582606e-12,-7.129286296771254e-13,-3.0235665789160074e-13,1.4110836962656574e-13,-8.931559727458624e-13,0.0,0.0,0.0,0.0,0.0
5616708000000,280814,5616708000000,,end,joint2,joint4,joint6,motortom2m,-7.522450814967385e-05,6.260665376078833e-05,0.00010808595913047725,5.031883254602576e-05,0.00012013645478958779,1.2018710901949201e-12,-7.129286301973575e-13,-3.023566584036538e-13,1.4110836916235303e-13,-8.931559732306158e-13,0.0,0.0,0.0,0.0,0.0
5616728000000,280815,5616728000000,,end,joint2,joint4,joint6,motortom2m,-7.522450814967385e-05,6.260665376078833e-05,0.00010808595913047725,5.031883254602576e-05,0.00012013645478869961,1.2018710904031974e-12,-7.129286298405712e-13,-3.0235665806245473e-13,1.411083694610981e-13,-8.931559728932002e-13,0.0,0.0,0.0,0.0,0.0
5616748000000,280816,5616748000000,,end,joint2,joint4,joint6,motortom2m,-7.522450814967385e-05,6.260665376078833e-05,0.0001080859591322536,5.031883254513758e-05,0.00012013645478869961,1.2018710895720994e-12,-7.129286311197079e-13,-3.02356659304671e-13,1.4110836835169503e-13,-8.931559740936576e-13,0.0,0.0,0.0,0.0,0.0
5616768000000,280817,5616768000000,,end,joint2,joint4,joint6,motortom2m,-7.522450815056203e-05,6.260665376078833e-05,0.0001080859591322536,5.031883254602576e-05,0.00012013645478958779,1.2018710903784737e-12,-7.129286299359082e-13,-3.0235665814575097e-13,1.41108369396699e-13,-8.931559729873738e-13,0.0,0.0,0.0,0.0,0.0
5616788000000,280818,5616788000000,,end,joint2,joint4,joint6,motortom2m,-7.522450814967385e-05,6.260665375901198e-05,0.0001080859591322536,5.031883254602576e-05,0.00012013645479047597,1.2018710909423846e-12,-7.129286289659552e-13,-3.023566572192366e-13,1.4110837020681658e-13,-8.931559720691534e-13,0.0,0.0,0.0,0.0,0.0
5616808000000,280819,5616808000000,,end,joint2,joint4,joint6,motortom2m,-7.522450814967385e-05,6.260665375990015e-05,0.0001080859591322536,5.031883254602576e-05,0.00012013645478958779,1.2018710900586627e-12,-7.129286304350853e-13,-3.0235665862956984e-13,1.4110836896564136e-13,-8.93155973456391e-13,0.0,0.0,0.0,0.0,0.0
5616828000000,280820,5616828000000,,end,joint2,joint4,joint6,motortom2m,-7.522450814967385e-05,6.260665375990015e-05,0.0001080859591322536,5.031883254602576e-05,0.00012013645479047597,1.2018710904591003e-12,-7.129286297952272e-13,-3.023566580119737e-13,1.4110836951303076e-13,-8.931559728536975e-13,0.0,0.0,0.0,0.0,0.0
5616848000000,280821,5616848000000,,end,joint2,joint4,joint6,motortom2m,-7.522450814967385e-05,6.260665375990015e-05,0.0001080859591322536,5.031883254513758e-05,0.00012013645478958779,1.2018710899068282e-12,-7.129286306964776e-13,-3.0235665887910474e-13,1.4110836874744784e-13,-8.931559737039607e-13,0.0,0.0,0.0,0.0,0.0
5616868000000,280822,5616868000000,,end,joint2,joint4,joint6,motortom2m,-7.522450814967385e-05,6.260665375990015e-05,0.0001080859591322536,5.031883254602576e-05,0.00012013645478869961,1.2018710881219536e-12,-7.129286336165335e-13,-3.0235666168832683e-13,1.4110836626784854e-13,-8.931559764580899e-13,0.0,0.0,0.0,0.0,0.0
5616888000000,280823,5616888000000,,end,joint2,joint4,joint6,motortom2m,-7.522450814967385e-05,6.260665375990015e-05,0.0001080859591322536,5.031883254602576e-05,0.00012013645478781143,1.2018710897232343e-12,-7.129286310115277e-13,-3.0235665918017183e-13,1.4110836848392195e-13,-8.931559740021337e-13,0.0,0.0,0.0,0.0,0.0
5616908000000,280824,5616908000000,,end,joint2,joint4,joint6,motortom2m,-7.522450814967385e-05,6.260665376078833e-05,0.0001080859591322536,5.031883254602576e-05,0.00012013645478958779,1.2018710905591876e-12,-7.129286296751065e-13,-3.02356657890011e-13,1.4110836962801108e-13,-8.931559727437595e-13,0.0,0.0,0.0,0.0,0.0
5616928000000,280825,5616928000000,,end,joint2,joint4,joint6,motortom2m,-7.522450814967385e-05,6.260665376078833e-05,0.0001080859591322536,5.031883254602576e-05,0.00012013645479047597,1.2018710904237515e-12,-7.129286298052865e-13,-3.023566580288162e-13,1.4110836949049332e-13,-8.931559728594921e-13,0.0,0.0,0.0,0.0,0.0
5616948000000,280826,5616948000000,,end,joint2,joint4,joint6,motortom2m,-7.522450815056203e-05,6.260665376078833e-05,0.0001080859591322536,5.031883254602576e-05,0.00012013645478958779,1.2018710890487223e-12,-7.129286321195127e-13,-3.023566602460924e-13,1.4110836754359793e-13,-8.931559750468858e-13,0.0,0.0,0.0,0.0,0.0
5616968000000,280827,5616968000000,,end,joint2,joint4,joint6,motortom2m,-7.522450814967385e-05,6.260665376078833e-05,0.0001080859591322536,5.031883254602576e-05,0.00012013645479047597,1.2018710905561384e-12,-7.129286297307583e-13,-3.023566579361427e-13,1.4110836959539783e-13,-8.931559727998782e-13,0.0,0.0,0.0,0.0,0.0
5616988000000,280828,5616988000000,,end,joint2,joint4,joint6,motortom2m,-7.522450814967385e-05,6.260665375990015e-05,0.0001080859591322536,5.031883254602576e-05,0.00012013645478869961,1.2018710896780011e-12,-7.129286311916103e-13,-3.023566593379961e-13,1.411083683619328e-13,-8.931559741797097e-13,0.0,0.0,0.0,0.0,0.0
5617008000000,280829,5617008000000,,end,joint2,joint4,joint6,motortom2m,-7.522450814967385e-05,6.260665375990015e-05,0.00010808595913047725,5.031883254513758e-05,0.00012013645478958779,1.2018710893272026e-12,-7.129286316946111e-13,-3.0235665983195744e-13,1.411083679146274e-13,-8.931559746491221e-13,0.0,0.0,0.0,0.0,0.0
5617028000000,280830,5617028000000,,end,joint2,joint4,joint6,motortom2m,-7.522450814967385e-05,6.260665375990015e-05,0.00010808595913047725,5.031883254602576e-05,0.00012013645478869961,1.2018710903109245e-12,-7.12928630001898e-13,-3.0235665821556534e-13,1.4110836932788063e-13,-8.931559730465709e-13,0.0,0.0,0.0,0.0,0.0
5617048000000,280831,5617048000000,,end,joint2,joint4,joint6,motortom2m,-7.522450814967385e-05,6.260665375990015e-05,0.00010808595913047725,5.031883254602576e-05,0.00012013645479047597,1.2018710904150938e-12,-7.129286298183955e-13,-3.0235665804162355e-13,1.411083694787381e-13,-8.931559728716657e-13,0.0,0.0,0.0,0.0,0.0
5617068000000,280832,5617068000000,,end,joint2,joint4,joint6,motortom2m,-7.522450814967385e-05,6.260665375990015e-05,0.0001080859591322536,5.031883254602576e-05,0.00012013645478958779,1.201871090318188e-12,-7.129286299896458e-13,-3.023566582037158e-13,1.4110836933830137e-13,-8.931559730349626e-13,0.0,0.0,0.0,0.0,0.0
5617088000000,280833,5617088000000,,end,joint2,joint4,joint6,motortom2m,-7.522450814967385e-05,6.26066537581238e-05,0.0001080859591322536,5.031883254602576e-05,0.00012013645479047597,1.201871090076959e-12,-7.129286304545153e-13,-3.0235665864083755e-13,1.4110836896368509e-13,-8.931559734783253e-13,0.0,0.0,0.0,0.0,0.0
5617108000000,280834,5617108000000,,end,joint2,joint4,joint6,motortom2m,-7.522450814967385e-05,6.260665376078833e-05,0.0001080859591322536,5.031883254513758e-05,0.00012013645478958779,1.201871090544628e-12,-7.129286297025218e-13,-3.0235665791541126e-13,1.4110836960649409e-13,-8.931559727702853e-13,0.0,0.0,0.0,0.0,0.0
5617128000000,280835,5617128000000,,end,joint2,joint4,joint6,motortom2m,-7.522450815056203e-05,6.260665376078833e-05,0.0001080859591322536,5.031883254602576e-05,0.00012013645478869961,1.2018710894214257e-12,-7.129286314303399e-13,-3.0235665959411777e-13,1.411083681066464e-13,-8.931559743914684e-13,0.0,0.0,0.0,0.0,0.0
5617148000000,280836,5617148000000,,end,joint2,joint4,joint6,motortom2m,-7.522450814967385e-05,6.260665376078833e-05,0.0001080859591322536,5.031883254602576e-05,0.00012013645478958779,1.2018710898560643e-12,-7.129286308341483e-13,-3.023566590037572e-13,1.4110836864629996e-13,-8.931559738376814e-13,0.0,0.0,0.0,0.0,0.0
5617168000000,280837,5617168000000,,end,joint2,joint4,joint6,motortom2m,-7.522450814967385e-05,6.260665376078833e-05,0.0001080859591322536,5.031883254602576e-05,0.00012013645478869961,1.2018710897664489e-12,-7.129286308370694e-13,-3.0235665902739605e-13,1.4110836860227905e-13,-8.9315597382999e-13,0.0,0.0,0.0,0.0,0.0
5617188000000,280838,5617188000000,,end,joint2,joint4,joint6,motortom2m,-7.522450814967385e-05,6.260665375990015e-05,0.0001080859591322536,5.031883254602576e-05,0.00012013645478958779,1.2018710898650645e-12,-7.129286308198702e-13,-3.0235665898970017e-13,1.4110836865890538e-13,-8.931559738244959e-13,0.0,0.0,0.0,0.0,0.0
5617208000000,280839,5617208000000,,end,joint2,joint4,joint6,motortom2m,-7.522450814967385e-05,6.260665375990015e-05,0.0001080859591322536,5.031883254602576e-05,0.00012013645478958779,1.2018710916032442e-12,-7.129286279290782e-13,-3.0235665621557994e-13,1.41108371099773e-13,-8.931559710943067e-13,0.0,0.0,0.0,0.0,0.0
5617228000000,280840,5617228000000,,end,joint2,joint4,joint6,motortom2m,-7.522450815056203e-05,6.260665375990015e-05,0.0001080859591322536,5.031883254602576e-05,0.00012013645479047597,1.2018710892106639e-12,-7.129286318431706e-13,-3.023566599813611e-13,1.4110836777566733e-13,-8.931559747856184e-13,0.0,0.0,0.0,0.0,0.0
5617248000000,280841,5617248000000,,end,joint2,joint4,joint6,motortom2m,-7.522450814967385e-05,6.260665375990015e-05,0.0001080859591322536,5.031883254602576e-05,0.00012013645478958779,1.2018710897994262e-12,-7.129286307254901e-13,-3.023566589291221e-13,1.4110836867904145e-13,-8.931559737198765e-13,0.0,0.0,0.0,0.0,0.0
5617268000000,280842,5617268000000,,end,joint2,joint4,joint6,motortom2m,-7.522450814967385e-05,6.260665375990015e-05,0.00010808595913136543,5.031883254513758e-05,0.00012013645478869961,1.2018710882226081e-12,-7.129286334445781e-13,-3.023566615236965e-13,1.411083664121744e-13,-8.931559762955067e-13,0.0,0.0,0.0,0.0,0.0
5617288000000,280843,5617288000000,,end,joint2,joint4,joint6,motortom2m,-7.522450814967385e-05,6.26066537581238e-05,0.0001080859591322536,5.031883254602576e-05,0.00012013645478958779,1.2018710905083543e-12,-7.129286296600518e-13,-3.023566578898264e-13,1.4110836961197476e-13,-8.931559727224191e-13,0.0,0.0,0.0,0.0,0.0
5617308000000,280844,5617308000000,,end,joint2,joint4,joint6,motortom2m,-7.522450815056203e-05,6.260665376078833e-05,0.0001080859591322536,5.031883254602576e-05,0.00012013645478869961,1.2018710899005892e-12,-7.129286308091298e-13,-3.0235665897273226e-13,1.4110836868149513e-13,-8.931559738176136e-13,0.0,0.0,0.0,0.0,0.0
5617328000000,280845,5617328000000,,end,joint2,joint4,joint6,motortom2m,-7.522450814967385e-05,6.260665376078833e-05,0.00010808595913047725,5.031883254602576e-05,0.00012013645479047597,1.20187109112588e-12,-7.129286286501529e-13,-3.023566569178676e-13,1.411083704704592e-13,-8.93155971770079e-13,0.0,0.0,0.0,0.0,0.0
5617348000000,280846,5617348000000,,end,joint2,joint4,joint6,motortom2m,-7.522450814967385e-05,6.260665376078833e-05,0.00010808595913047725,5.031883254602576e-05,0.00012013645478958779,1.2018710902534264e-12,-7.129286300975068e-13,-3.0235665830799994e-13,1.4110836924617393e-13,-8.931559731363112e-13,0.0,0.0,0.0,0.0,0.0
5617368000000,280847,5617368000000,,end,joint2,joint4,joint6,motortom2m,-7.522450814967385e-05,6.260665376078833e-05,0.0001080859591322536,5.031883254513758e-05,0.00012013645478958779,1.2018710885457938e-12,-7.129286330902063e-13,-3.023566611575509e-13,1.411083667635664e-13,-8.931559759738735e-13,0.0,0.0,0.0,0.0,0.0
5617388000000,280848,5617388000000,,end,joint2,joint4,joint6,motortom2m,-7.522450814967385e-05,6.260665375990015e-05,0.0001080859591322536,5.031883254602576e-05,0.00012013645478869961,1.2018710902562597e-12,-7.129286301459056e-13,-3.02356658346313e-13,1.4110836922125148e-13,-8.931559731861701e-13,0.0,0.0,0.0,0.0,0.0
5617408000000,280849,5617408000000,,end,joint2,joint4,joint6,motortom2m,-7.522450815056203e-05,6.260665375990015e-05,0.0001080859591322536,5.031883254602576e-05,0.00012013645478958779,1.201871091123723e-12,-7.129286286515508e-13,-3.023566569198368e-13,1.4110837046798634e-13,-8.931559717710739e-13,0.0,0.0,0.0,0.0,0.0
5617428000000,280850,5617428000000,,end,joint2,joint4,joint6,motortom2m,-7.522450814967385e-05,6.260665375990015e-05,0.0001080859591322536,5.031883254602576e-05,0.00012013645478869961,1.2018710885207653e-12,-7.129286329299121e-13,-3.0235666103280437e-13,1.4110836684094496e-13,-8.931559758078565e-13,0.0,0.0,0.0,0.0,0.0
5617448000000,280851,5617448000000,,end,joint2,joint4,joint6,motortom2m,-7.522450814967385e-05,6.260665375990015e-05,0.0001080859591322536,5.031883254602576e-05,0.00012013645478958779,1.2018710898883138e-12,-7.129286307276946e-13,-3.0235665890909186e-13,1.4110836872104975e-13,-8.931559737333661e-13,0.0,0.0,0.0,0.0,0.0
5617468000000,280852,5617468000000,,end,joint2,joint4,joint6,motortom2m,-7.522450814967385e-05,6.260665375990015e-05,0.0001080859591322536,5.031883254513758e-05,0.00012013645479047597,1.2018710903509511e-12,-7.12928629983251e-13,-3.0235665819082343e-13,1.4110836935720778e-13,-8.931559730322222e-13,0.0,0.0,0.0,0.0,0.0
5617488000000,280853,5617488000000,,end,joint2,joint4,joint6,motortom2m,-7.522450814967385e-05,6.26066537581238e-05,0.0001080859591322536,5.031883254602576e-05,0.00012013645478958779,1.2018710899911762e-12,-7.129286305508876e-13,-3.0235665874014486e-13,1.411083688687954e-13,-8.93155973566097e-13,0.0,0.0,0.0,0.0,0.0
5617508000000,280854,5617508000000,,end,joint2,joint4,joint6,motortom2m,-7.522450814967385e-05,6.260665375901198e-05,0.0001080859591322536,5.031883254602576e-05,0.00012013645479047597,1.2018710888920345e-12,-7.129286324414135e-13,-3.0235666054580764e-13,1.411083672898314e-13,-8.931559753555554e-13,0.0,0.0,0.0,0.0,0.0
5617528000000,280855,5617528000000,,end,joint2,joint4,joint6,motortom2m,-7.522450814967385e-05,6.260665376078833e-05,0.0001080859591322536,5.031883254602576e-05,0.00012013645478869961,1.2018710892098038e-12,-7.129286318966713e-13,-3.0235666002512047e-13,1.4110836774574262e-13,-8.931559748401778e-13,0.0,0.0,0.0,0.0,0.0
5617548000000,280856,5617548000000,,end,joint2,joint4,joint6,motortom2m,-7.522450814967385e-05,6.260665376078833e-05,0.0001080859591322536,5.031883254602576e-05,0.00012013645478958779,1.2018710896630468e-12,-7.129286310656854e-13,-3.0235665923877483e-13,1.4110836842525796e-13,-8.931559740497992e-13,0.0,0.0,0.0,0.0,0.0
5617568000000,280857,5617568000000,,end,joint2,joint4,joint6,motortom2m,-7.522450814967385e-05,6.260665376078833e-05,0.0001080859591322536,5.031883254602576e-05,0.00012013645478869961,1.2018710908332808e-12,-7.12928629050153e-13,-3.023566573146697e-13,1.4110837010706256e-13,-8.931559721412721e-13,0.0,0.0,0.0,0.0,0.0
5617588000000,280858,5617588000000,,end,joint2,joint4,joint6,motortom2m,-7.522450815056203e-05,6.260665375990015e-05,0.0001080859591322536,5.031883254602576e-05,0.00012013645478958779,1.2018710905688583e-12,-7.129286296572013e-13,-3.023566578731992e-13,1.4110836964227793e-13,-8.931559727266673e-13,0.0,0.0,0.0,0.0,0.0
5617608000000,280859,5617608000000,,end,joint2,joint4,joint6,motortom2m,-7.522450814967385e-05,6.260665375990015e-05,0.0001080859591322536,5.031883254602576e-05,0.00012013645479047597,1.2018710905003548e-12,-7.129286298276031e-13,-3.023566580283077e-13,1.4110836951501126e-13,-8.931559728918034e-13,0.0,0.0,0.0,0.0,0.0
5617628000000,280860,5617628000000,,end,joint2,joint4,joint6,motortom2m,-7.522450814967385e-05,6.260665375990015e-05,0.00010808595913314178,5.031883254513758e-05,0.00012013645478958779,1.201871089833675e-12,-7.129286308232113e-13,-3.0235665899995127e-13,1.4110836864201462e-13,-8.9315597382406e-13,0.0,0.0,0.0,0.0,0.0
5617648000000,280861,5617648000000,,end,joint2,joint4,joint6,motortom2m,-7.522450814967385e-05,6.260665375990015e-05,0.00010808595913047725,5.031883254602576e-05,0.00012013645479047597,1.2018710905054568e-12,-7.129286296641543e-13,-3.023566578939193e-13,1.4110836960825891e-13,-8.931559727260491e-13,0.0,0.0,0.0,0.0,0.0
5617668000000,280862,5617668000000,,end,joint2,joint4,joint6,motortom2m,-7.522450814967385e-05,6.260665375990015e-05,0.00010808595913047725,5.031883254602576e-05,0.00012013645478869961,1.2018710899903103e-12,-7.129286305526015e-13,-3.0235665874167927e-13,1.4110836886755543e-13,-8.931559735678096e-13,0.0,0.0,0.0,0.0,0.0
5617688000000,280863,5617688000000,,end,joint2,joint4,joint6,motortom2m,-7.522450814967385e-05,6.26066537581238e-05,0.0001080859591322536,5.031883254602576e-05,0.00012013645478869961,1.2018710901322154e-12,-7.129286303058431e-13,-3.0235665850679653e-13,1.411083690721968e-13,-8.931559733335417e-13,0.0,0.0,0.0,0.0,0.0
5617708000000,280864,5617708000000,,end,joint2,joint4,joint6,motortom2m,-7.522450814967385e-05,6.260665375901198e-05,0.0001080859591322536,5.031883254602576e-05,0.00012013645478958779,1.2018710883792435e-12,-7.129286331728792e-13,-3.0235666126499696e-13,1.4110836663778609e-13,-8.931559760377302e-13,0.0,0.0,0.0,0.0,0.0
5617728000000,280865,5617728000000,,end,joint2,joint4,joint6,motortom2m,-7.522450814967385e-05,6.260665375901198e-05,0.0001080859591322536,5.031883254513758e-05,0.00012013645479047597,1.2018710887259304e-12,-7.129286326258742e-13,-3.0235666073595134e-13,1.4110836710786984e-13,-8.931559755230238e-13,0.0,0.0,0.0,0.0,0.0
5617748000000,280866,5617748000000,,end,joint2,joint4,joint6,motortom2m,-7.522450814967385e-05,6.260665376078833e-05,0.0001080859591322536,5.031883254602576e-05,0.00012013645478958779,1.2018710904115346e-12,-7.129286298780144e-13,-3.023566580908018e-13,1.411083694444711e-13,-8.931559729323831e-13,0.0,0.0,0.0,0.0,0.0
5617768000000,280867,5617768000000,,end,joint2,joint4,joint6,motortom2m,-7.522450815056203e-05,6.260665376078833e-05,0.0001080859591322536,5.031883254602576e-05,0.00012013645479047597,1.2018710905130747e-12,-7.129286298034929e-13,-3.0235665800593907e-13,1.4110836953401077e-13,-8.931559728685226e-13,0.0,0.0,0.0,0.0,0.0
5617788000000,280868,5617788000000,,end,joint2,joint4,joint6,motortom2m,-7.522450814967385e-05,6.260665375990015e-05,0.0001080859591322536,5.031883254602576e-05,0.00012013645478958779,1.2018710904256627e-12,-7.129286298529179e-13,-3.02356658067024e-13,1.4110836946501288e-13,-8.931559729085413e-13,0.0,0.0,0.0,0.0,0.0
5617808000000,280869,5617808000000,,end,joint2,joint4,joint6,motortom2m,-7.522450814967385e-05,6.260665375990015e-05,0.0001080859591322536,5.031883254602576e-05,0.00012013645478869961,1.201871089749677e-12,-7.129286308652637e-13,-3.023566590544967e-13,1.4110836857831565e-13,-8.931559738565642e-13,0.0,0.0,0.0,0.0,0.0
5617828000000,280870,5617828000000,,end,joint2,joint4,joint6,motortom2m,-7.522450814967385e-05,6.260665375990015e-05,0.0001080859591322536,5.031883254602576e-05,0.00012013645478781143,1.2018710908001148e-12,-7.129286291564001e-13,-3.023566574094233e-13,1.41108370031612e-13,-8.931559722452797e-13,0.0,0.0,0.0,0.0,0.0
5617848000000,280871,5617848000000,,end,joint2,joint4,joint6,motortom2m,-7.522450814967385e-05,6.260665375990015e-05,0.0001080859591322536,5.031883254602576e-05,0.00012013645478958779,1.2018710912069435e-12,-7.129286284572794e-13,-3.023566567415099e-13,1.4110837061586305e-13,-8.931559715834611e-13,0.0,0.0,0.0,0.0,0.0
5617868000000,280872,5617868000000,,end,joint2,joint4,joint6,motortom2m,-7.522450814967385e-05,6.260665375990015e-05,0.0001080859591322536,5.031883254602576e-05,0.00012013645479047597,1.20187109117503e-12,-7.129286286147904e-13,-3.0235665687746054e-13,1.4110837051302446e-13,-8.931559717398024e-13,0.0,0.0,0.0,0.0,0.0
5617888000000,280873,5617888000000,,end,joint2,joint4,joint6,motortom2m,-7.522450814967385e-05,6.26066537581238e-05,0.0001080859591322536,5.031883254513758e-05,0.00012013645478958779,1.2018710888924994e-12,-7.129286324441041e-13,-3.0235666054720775e-13,1.4110836728953696e-13,-8.931559753589699e-13,0.0,0.0,0.0,0.0,0.0
5617908000000,280874,5617908000000,,end,joint2,joint4,joint6,motortom2m,-7.522450814967385e-05,6.260665375901198e-05,0.0001080859591322536,5.031883254602576e-05,0.00012013645479047597,1.201871088656106e-12,-7.129286329521212e-13,-3.0235666101842726e-13,1.411083668932399e-13,-8.931559758467697e-13,0.0,0.0,0.0,0.0,0.0
5617928000000,280875,5617928000000,,end,joint2,joint4,joint6,motortom2m,-7.522450814967385e-05,6.260665375901198e-05,0.0001080859591322536,5.031883254602576e-05,0.00012013645478958779,1.2018710911033914e-12,-7.129286286368787e-13,-3.0235665691267853e-13,1.41108370466563e-13,-8.931559717538129e-13,0.0,0.0,0.0,0.0,0.0
5617948000000,280876,5617948000000,,end,joint2,joint4,joint6,motortom2m,-7.522450815056203e-05,6.260665376078833e-05,0.00010808595913047725,5.031883254602576e-05,0.00012013645478869961,1.2018710897696873e-12,-7.129286309337941e-13,-3.023566591053649e-13,1.4110836855011518e-13,-8.931559739288681e-13,0.0,0.0,0.0,0.0,0.0
5617968000000,280877,5617968000000,,end,joint2,joint4,joint6,motortom2m,-7.522450814967385e-05,6.260665376078833e-05,0.00010808595913047725,5.031883254602576e-05,0.00012013645478958779,1.2018710900586512e-12,-7.129286304337946e-13,-3.02356658628738e-13,1.4110836896604405e-13,-8.931559734549494e-13,0.0,0.0,0.0,0.0,0.0
5617988000000,280878,5617988000000,,end,joint2,joint4,joint6,motortom2m,-7.522450814967385e-05,6.260665375990015e-05,0.00010808595913047725,5.031883254513758e-05,0.00012013645479047597,1.2018710896587817e-12,-7.129286312267751e-13,-3.0235665937078304e-13,1.411083683339371e-13,-8.931559742132622e-13,0.0,0.0,0.0,0.0,0.0
5618008000000,280879,5618008000000,,end,joint2,joint4,joint6,motortom2m,-7.522450814967385e-05,6.260665375990015e-05,0.0001080859591322536,5.031883254602576e-05,0.00012013645478958779,1.2018710897836494e-12,-7.129286309597081e-13,-3.0235665912319795e-13,1.411083685421366e-13,-8.931559739567862e-13,0.0,0.0,0.0,0.0,0.0
5618028000000,280880,5618028000000,,end,joint2,joint4,joint6,motortom2m,-7.522450814967385e-05,6.260665375990015e-05,0.0001080859591322536,5.031883254602576e-05,0.00012013645479047597,1.201871090998343e-12,-7.129286288665858e-13,-3.023566571253611e-13,1.4110837028806668e-13,-8.931559719743646e-13,0.0,0.0,0.0,0.0,0.0
5618048000000,280881,5618048000000,,end,joint2,joint4,joint6,motortom2m,-7.522450815056203e-05,6.260665375990015e-05,0.0001080859591322536,5.031883254602576e-05,0.00012013645478958779,1.201871089898484e-12,-7.129286307083871e-13,-3.0235665889115097e-13,1.411083687362597e-13,-8.931559737147237e-13,0.0,0.0,0.0,0.0,0.0
5618068000000,280882,5618068000000,,end,joint2,joint4,joint6,motortom2m,-7.522450814967385e-05,6.260665375990015e-05,0.0001080859591322536,5.031883254602576e-05,0.00012013645478869961,1.2018710908186345e-12,-7.129286291279409e-13,-3.0235665738107036e-13,1.4110837005738608e-13,-8.931559722190709e-13,0.0,0.0,0.0,0.0,0.0
5618088000000,280883,5618088000000,,end,joint2,joint4,joint6,motortom2m,-7.522450814967385e-05,6.26066537581238e-05,0.0001080859591322536,5.031883254602576e-05,0.00012013645478958779,1.2018710893183149e-12,-7.129286317111561e-13,-3.0235665984734187e-13,1.4110836790139918e-13,-8.93155974665071e-13,0.0,0.0,0.0,0.0,0.0
5618108000000,280884,5618108000000,,end,joint2,joint4,joint6,motortom2m,-7.522450814967385e-05,6.260665375901198e-05,0.0001080859591322536,5.031883254602576e-05,0.00012013645478869961,1.201871088063124e-12,-7.129286337182849e-13,-3.023566617854125e-13,1.4110836618314755e-13,-8.931559765544576e-13,0.0,0.0,0.0,0.0,0.0
5618128000000,280885,5618128000000,,end,joint2,joint4,joint6,motortom2m,-7.522450815056203e-05,6.260665375901198e-05,0.0001080859591322536,5.031883254602576e-05,0.00012013645478958779,1.2018710886310595e-12,-7.129286327395248e-13,-3.023566608512239e-13,1.411083669995013e-13,-8.931559756275383e-13,0.0,0.0,0.0,0.0,0.0
5618148000000,280886,5618148000000,,end,joint2,joint4,joint6,motortom2m,-7.522450814967385e-05,6.260665375901198e-05,0.0001080859591322536,5.031883254513758e-05,0.00012013645478958779,1.2018710893387684e-12,-7.129286315722129e-13,-3.0235665972954476e-13,1.4110836798803444e-13,-8.931559745257535e-13,0.0,0.0,0.0,0.0,0.0
5618168000000,280887,5618168000000,,end,joint2,joint4,joint6,motortom2m,-7.522450814967385e-05,6.260665376078833e-05,0.0001080859591322536,5.031883254602576e-05,0.00012013645479047597,1.2018710906120203e-12,-7.129286296346917e-13,-3.02356657844343e-13,1.4110836967569433e-13,-8.931559727089182e-13,0.0,0.0,0.0,0.0,0.0
5618188000000,280888,5618188000000,,end,joint2,joint4,joint6,motortom2m,-7.522450814967385e-05,6.260665375990015e-05,0.0001080859591322536,5.031883254602576e-05,0.00012013645478958779,1.2018710912759519e-12,-7.129286284441594e-13,-3.0235665671372624e-13,1.4110837065708475e-13,-8.931559715789722e-13,0.0,0.0,0.0,0.0,0.0
5618208000000,280889,5618208000000,,end,joint2,joint4,joint6,motortom2m,-7.522450814967385e-05,6.260665375990015e-05,0.00010808595913136543,5.031883254602576e-05,0.00012013645478869961,1.2018710899657125e-12,-7.129286304408126e-13,-3.0235665865679955e-13,1.4110836891764004e-13,-8.931559734506937e-13,0.0,0.0,0.0,0.0,0.0
5618228000000,280890,5618228000000,,end,joint2,joint4,joint6,motortom2m,-7.522450815056203e-05,6.260665375990015e-05,0.0001080859591322536,5.031883254602576e-05,0.00012013645478958779,1.2018710888756828e-12,-7.129286324703304e-13,-3.023566605731987e-13,1.4110836726605662e-13,-8.931559753831797e-13,0.0,0.0,0.0,0.0,0.0
5618248000000,280891,5618248000000,,end,joint2,joint4,joint6,motortom2m,-7.522450814967385e-05,6.260665375990015e-05,0.0001080859591322536,5.031883254513758e-05,0.00012013645478869961,1.2018710897446946e-12,-7.129286309760168e-13,-3.0235665914594016e-13,1.4110836851424248e-13,-8.931559739686825e-13,0.0,0.0,0.0,0.0,0.0
5618268000000,280892,5618268000000,,end,joint2,joint4,joint6,motortom2m,-7.522450814967385e-05,6.260665375990015e-05,0.00010808595913047725,5.031883254602576e-05,0.00012013645479047597,1.2018710889254364e-12,-7.129286323876381e-13,-3.0235666049311e-13,1.4110836733697302e-13,-8.93155975305529e-13,0.0,0.0,0.0,0.0,0.0
5618288000000,280893,5618288000000,,end,joint2,joint4,joint6,motortom2m,-7.522450814967385e-05,6.26066537581238e-05,0.00010808595913047725,5.031883254602576e-05,0.00012013645478958779,1.2018710897682767e-12,-7.12928630935125e-13,-3.0235665910677207e-13,1.4110836854845718e-13,-8.931559739300761e-13,0.0,0.0,0.0,0.0,0.0
5618308000000,280894,5618308000000,,end,joint2,joint4,joint6,motortom2m,-7.522450814967385e-05,6.260665375901198e-05,0.0001080859591322536,5.031883254602576e-05,0.00012013645478958779,1.2018710913301405e-12,-7.129286282429724e-13,-3.0235665653753556e-13,1.4110837079363357e-13,-8.931559713800861e-13,0.0,0.0,0.0,0.0,0.0
5618328000000,280895,5618328000000,,end,joint2,joint4,joint6,motortom2m,-7.522450814967385e-05,6.260665375901198e-05,0.0001080859591322536,5.031883254602576e-05,0.00012013645478869961,1.2018710900705211e-12,-7.129286302639873e-13,-3.023566584868287e-13,1.4110836906723392e-13,-8.931559732840232e-13,0.0,0.0,0.0,0.0,0.0
5618348000000,280896,5618348000000,,end,joint2,joint4,joint6,motortom2m,-7.522450814967385e-05,6.260665375901198e-05,0.0001080859591322536,5.031883254602576e-05,0.00012013645478958779,1.2018710892680608e-12,-7.12928631644955e-13,-3.023566598054735e-13,1.4110836791428894e-13,-8.931559745915166e-13,0.0,0.0,0.0,0.0,0.0
5618368000000,280897,5618368000000,,end,joint2,joint4,joint6,motortom2m,-7.522450814967385e-05,6.260665375901198e-05,0.0001080859591322536,5.031883254602576e-05,0.00012013645478869961,1.2018710890938448e-12,-7.129286319442651e-13,-3.0235666009139024e-13,1.4110836766416698e-13,-8.931559748748422e-13,0.0,0.0,0.0,0.0,0.0
5618388000000,280898,5618388000000,,end,joint2,joint4,joint6,motortom2m,-7.522450814967385e-05,6.260665375990015e-05,0.0001080859591322536,5.031883254602576e-05,0.00012013645478958779,1.2018710897360021e-12,-7.129286310405461e-13,-3.023566592008176e-13,1.4110836847392328e-13,-8.931559740330996e-13,0.0,0.0,0.0,0.0,0.0
5618408000000,280899,5618408000000,,end,joint2,joint4,joint6,motortom2m,-7.522450815056203e-05,6.260665375990015e-05,0.0001080859591322536,5.031883254513758e-05,0.00012013645479047597,1.2018710877489374e-12,-7.129286345645676e-13,-3.023566625508064e-13,1.4110836556153889e-13,-8.931559773771389e-13,0.0,0.0,0.0,0.0,0.0
5618428000000,280900,5618428000000,,end,joint2,joint4,joint6,motortom2m,-7.522450814967385e-05,6.260665375990015e-05,0.0001080859591322536,5.031883254602576e-05,0.00012013645478958779,1.2018710894920507e-12,-7.12928631409461e-13,-3.023566595601878e-13,1.4110836815173643e-13,-8.931559743788243e-13,0.0,0.0,0.0,0.0,0.0
5618448000000,280901,5618448000000,,end,joint2,joint4,joint6,motortom2m,-7.522450814967385e-05,6.260665375990015e-05,0.0001080859591322536,5.031883254602576e-05,0.00012013645479047597,1.2018710920871493e-12,-7.129286269926081e-13,-3.0235665533603795e-13,1.411083718523886e-13,-8.931559702001819e-13,0.0,0.0,0.0,0.0,0.0
5618468000000,280902,5618468000000,,end,joint2,joint4,joint6,motortom2m,-7.522450814967385e-05,6.260665375990015e-05,0.0001080859591322536,5.031883254602576e-05,0.00012013645478869961,1.2018710899809968e-12,-7.129286304134114e-13,-3.023566586309316e-13,1.4110836893987315e-13,-8.931559734245068e-13,0.0,0.0,0.0,0.0,0.0
5618488000000,280903,5618488000000,,end,joint2,joint4,joint6,motortom2m,-7.522450814967385e-05,6.26066537581238e-05,0.0001080859591322536,5.031883254602576e-05,0.00012013645478958779,1.2018710892225005e-12,-7.129286318727699e-13,-3.0235666000269733e-13,1.411083677646252e-13,-8.931559748173144e-13,0.0,0.0,0.0,0.0,0.0
5618508000000,280904,5618508000000,,end,joint2,joint4,joint6,motortom2m,-7.522450814967385e-05,6.260665375901198e-05,0.0001080859591322536,5.031883254513758e-05,0.00012013645478869961,1.201871090602453e-12,-7.129286294478454e-13,-3.023566576942107e-13,1.4110836977530356e-13,-8.931559725179162e-13,0.0,0.0,0.0,0.0,0.0
5618528000000,280905,5618528000000,,end,joint2,joint4,joint6,motortom2m,-7.522450814967385e-05,6.260665375901198e-05,0.0001080859591322536,5.031883254602576e-05,0.00012013645478958779,1.2018710900288259e-12,-7.129286304864402e-13,-3.0235665867864956e-13,1.4110836892265624e-13,-8.931559735049922e-13,0.0,0.0,0.0,0.0,0.0
5618548000000,280906,5618548000000,,end,joint2,joint4,joint6,motortom2m,-7.522450814967385e-05,6.260665375901198e-05,0.0001080859591322536,5.031883254602576e-05,0.00012013645479047597,1.2018710902349332e-12,-7.129286302332281e-13,-3.023566584227432e-13,1.411083691621129e-13,-8.931559732722525e-13,0.0,0.0,0.0,0.0,0.0
5618568000000,280907,5618568000000,,end,joint2,joint4,joint6,motortom2m,-7.522450814967385e-05,6.260665375901198e-05,0.00010808595913314178,5.031883254602576e-05,0.00012013645478958779,1.2018710892022164e-12,-7.129286319109173e-13,-3.023566600381964e-13,1.4110836773451126e-13,-8.931559748541387e-13,0.0,0.0,0.0,0.0,0.0
5618588000000,280908,5618588000000,,end,joint2,joint4,joint6,motortom2m,-7.522450815056203e-05,6.260665375990015e-05,0.00010808595913047725,5.031883254602576e-05,0.00012013645479047597,1.2018710888728248e-12,-7.129286325262324e-13,-3.0235666061932473e-13,1.4110836723380324e-13,-8.931559754396805e-13,0.0,0.0,0.0,0.0,0.0
5618608000000,280909,5618608000000,,end,joint2,joint4,joint6,motortom2m,-7.522450814967385e-05,6.260665375990015e-05,0.00010808595913047725,5.031883254513758e-05,0.00012013645478869961,1.2018710901074193e-12,-7.129286303495233e-13,-3.0235665854831086e-13,1.4110836903623222e-13,-8.931559733751613e-13,0.0,0.0,0.0,0.0,0.0
5618628000000,280910,5618628000000,,end,joint2,joint4,joint6,motortom2m,-7.522450814967385e-05,6.260665375990015e-05,0.0001080859591322536,5.031883254602576e-05,0.00012013645478869961,1.2018710897526624e-12,-7.12928630808395e-13,-3.023566590074488e-13,1.4110836861132533e-13,-8.93155973798896e-13,0.0,0.0,0.0,0.0,0.0
5618648000000,280911,5618648000000,,end,joint2,joint4,joint6,motortom2m,-7.522450814967385e-05,6.260665375990015e-05,0.0001080859591322536,5.031883254602576e-05,0.00012013645478958779,1.2018710906291865e-12,-7.129286294504105e-13,-3.0235665769011097e-13,1.411083697861801e-13,-8.931559725235572e-13,0.0,0.0,0.0,0.0,0.0
5618668000000,280912,5618668000000,,end,joint2,joint4,joint6,motortom2m,-7.522450814967385e-05,6.260665375990015e-05,0.0001080859591322536,5.031883254602576e-05,0.00012013645479047597,1.201871088845393e-12,-7.129286325733246e-13,-3.023566606642342e-13,1.411083671944425e-13,-8.931559754842406e-13,0.0,0.0,0.0,0.0,0.0
5618688000000,280913,5618688000000,,end,joint2,joint4,joint6,motortom2m,-7.522450814967385e-05,6.26066537581238e-05,0.0001080859591322536,5.031883254602576e-05,0.00012013645478958779,1.2018710902657024e-12,-7.129286300793401e-13,-3.023566582895653e-13,1.4110836926300673e-13,-8.931559731197992e-13,0.0,0.0,0.0,0.0,0.0
5618708000000,280914,5618708000000,,end,joint2,joint4,joint6,motortom2m,-7.522450814967385e-05,6.260665375901198e-05,0.0001080859591322536,5.031883254602576e-05,0.00012013645479047597,1.201871088585617e-12,-7.129286329718172e-13,-3.0235666105130204e-13,1.4110836684874541e-13,-8.931559758583359e-13,0.0,0.0,0.0,0.0,0.0
5618729000000,280915,5618728000000,,end,joint2,joint4,joint6,motortom2m,-7.522450814967385e-05,6.260665375901198e-05,0.0001080859591322536,5.031883254602576e-05,0.00012013645478958779,1.2018710901629563e-12,-7.129286301028987e-13,-3.0235665833366254e-13,1.4110836920056126e-13,-8.931559731311522e-13,0.0,0.0,0.0,0.0,0.0
5618748000000,280916,5618748000000,,end,joint2,joint4,joint6,motortom2m,-7.522450814967385e-05,6.260665375901198e-05,0.0001080859591322536,5.031883254602576e-05,0.00012013645478869961,1.2018710897257274e-12,-7.129286308555686e-13,-3.023566590522848e-13,1.4110836857229073e-13,-8.931559738438461e-13,0.0,0.0,0.0,0.0,0.0
5618768000000,280917,5618768000000,,end,joint2,joint4,joint6,motortom2m,-7.522450815056203e-05,6.260665375901198e-05,0.0001080859591322536,5.031883254513758e-05,0.00012013645478781143,1.2018710897818373e-12,-7.129286309095161e-13,-3.023566590831108e-13,1.411083685684852e-13,-8.931559739053121e-13,0.0,0.0,0.0,0.0,0.0
5618788000000,280918,5618788000000,,end,joint2,joint4,joint6,motortom2m,-7.522450814967385e-05,6.260665375990015e-05,0.0001080859591322536,5.031883254602576e-05,0.00012013645478958779,1.2018710916646292e-12,-7.129286277714395e-13,-3.0235665607250375e-13,1.4110837121664982e-13,-8.931559709412521e-13,0.0,0.0,0.0,0.0,0.0
5618808000000,280919,5618808000000,,end,joint2,joint4,joint6,motortom2m,-7.522450814967385e-05,6.260665375990015e-05,0.0001080859591322536,5.031883254602576e-05,0.00012013645479047597,1.2018710893272737e-12,-7.129286316941156e-13,-3.023566598317042e-13,1.411083679146585e-13,-8.931559746482841e-13,0.0,0.0,0.0,0.0,0.0
5618828000000,280920,5618828000000,,end,joint2,joint4,joint6,motortom2m,-7.522450814967385e-05,6.260665375990015e-05,0.0001080859591322536,5.031883254602576e-05,0.00012013645478958779,1.2018710904924053e-12,-7.129286295338506e-13,-3.023566577909858e-13,1.411083696744152e-13,-8.93155972591853e-13,0.0,0.0,0.0,0.0,0.0
5618848000000,280921,5618848000000,,end,joint2,joint4,joint6,motortom2m,-7.522450814967385e-05,6.260665375990015e-05,0.0001080859591322536,5.031883254602576e-05,0.00012013645479047597,1.201871089254338e-12,-7.129286319211844e-13,-3.023566600343778e-13,1.411083677531723e-13,-8.931559748704585e-13,0.0,0.0,0.0,0.0,0.0
5618868000000,280922,5618868000000,,end,joint2,joint4,joint6,motortom2m,-7.522450815056203e-05,6.260665375990015e-05,0.0001080859591322536,5.031883254513758e-05,0.00012013645478958779,1.20187109027216e-12,-7.129286300665211e-13,-3.023566582779793e-13,1.4110836927260756e-13,-8.931559731072502e-13,0.0,0.0,0.0,0.0,0.0
5618888000000,280923,5618888000000,,end,joint2,joint4,joint6,motortom2m,-7.522450814967385e-05,6.260665376078833e-05,0.00010808595913047725,5.031883254602576e-05,0.00012013645478869961,1.2018710884862774e-12,-7.129286331428824e-13,-3.023566612147219e-13,1.4110836670602667e-13,-8.93155976020401e-13,0.0,0.0,0.0,0.0,0.0
5618908000000,280924,5618908000000,,end,joint2,joint4,joint6,motortom2m,-7.522450814967385e-05,6.260665375901198e-05,0.00010808595913047725,5.031883254602576e-05,0.00012013645478958779,1.2018710910021295e-12,-7.129286288112298e-13,-3.0235665707899696e-13,1.4110837032127366e-13,-8.931559719190061e-13,0.0,0.0,0.0,0.0,0.0
5618928000000,280925,5618928000000,,end,joint2,joint4,joint6,motortom2m,-7.522450814967385e-05,6.260665375901198e-05,0.0001080859591322536,5.031883254602576e-05,0.00012013645479047597,1.201871090702356e-12,-7.129286291733222e-13,-3.023566574463734e-13,1.411083699759936e-13,-8.931559722505337e-13,0.0,0.0,0.0,0.0,0.0
5618948000000,280926,5618948000000,,end,joint2,joint4,joint6,motortom2m,-7.522450814967385e-05,6.260665375901198e-05,0.0001080859591322536,5.031883254602576e-05,0.00012013645478958779,1.2018710881217044e-12,-7.129286336177762e-13,-3.023566616892332e-13,1.4110836626730954e-13,-8.931559764593313e-13,0.0,0.0,0.0,0.0,0.0
5618968000000,280927,5618968000000,,end,joint2,joint4,joint6,motortom2m,-7.522450814967385e-05,6.260665375901198e-05,0.0001080859591322536,5.031883254602576e-05,0.00012013645479047597,1.2018710901543796e-12,-7.129286303226872e-13,-3.0235665851458184e-13,1.411083690744449e-13,-8.93155973353749e-13,0.0,0.0,0.0,0.0,0.0
5618988000000,280928,5618988000000,,end,joint2,joint4,joint6,motortom2m,-7.522450814967385e-05,6.260665375990015e-05,0.0001080859591322536,5.031883254602576e-05,0.00012013645478958779,1.2018710906040223e-12,-7.129286294947076e-13,-3.0235665773219883e-13,1.41108369749708e-13,-8.931559725656591e-13,0.0,0.0,0.0,0.0,0.0
5619008000000,280929,5619008000000,,end,joint2,joint4,joint6,motortom2m,-7.522450814967385e-05,6.260665375990015e-05,0.0001080859591322536,5.031883254602576e-05,0.00012013645478869961,1.2018710886061816e-12,-7.129286327815773e-13,-3.0235666089160973e-13,1.411083669640006e-13,-8.931559756671298e-13,0.0,0.0,0.0,0.0,0.0
5619028000000,280930,5619028000000,,end,joint2,joint4,joint6,motortom2m,-7.522450814967385e-05,6.260665375990015e-05,0.0001080859591322536,5.031883254513758e-05,0.00012013645478958779,1.2018710897163301e-12,-7.129286310216701e-13,-3.023566591904205e-13,1.4110836847453458e-13,-8.931559740112851e-13,0.0,0.0,0.0,0.0,0.0
5619048000000,280931,5619048000000,,end,joint2,joint4,joint6,motortom2m,-7.522450815056203e-05,6.260665375990015e-05,0.0001080859591322536,5.031883254602576e-05,0.00012013645478869961,1.2018710892929033e-12,-7.129286316011212e-13,-3.0235665976396545e-13,1.4110836795026464e-13,-8.931559745498675e-13,0.0,0.0,0.0,0.0,0.0
5619068000000,280932,5619068000000,,end,joint2,joint4,joint6,motortom2m,-7.522450814967385e-05,6.260665375990015e-05,0.0001080859591322536,5.031883254602576e-05,0.00012013645478958779,1.2018710901643054e-12,-7.129286302538478e-13,-3.0235665845626924e-13,1.4110836911723614e-13,-8.931559732850412e-13,0.0,0.0,0.0,0.0,0.0
5619088000000,280933,5619088000000,,end,joint2,joint4,joint6,motortom2m,-7.522450814967385e-05,6.260665376078833e-05,0.0001080859591322536,5.031883254602576e-05,0.00012013645478958779,1.2018710897736352e-12,-7.129286310766694e-13,-3.023566592215757e-13,1.411083684714072e-13,-8.931559740740701e-13,0.0,0.0,0.0,0.0,0.0
5619108000000,280934,5619108000000,,end,joint2,joint4,joint6,motortom2m,-7.522450814967385e-05,6.260665375901198e-05,0.0001080859591322536,5.031883254602576e-05,0.00012013645479047597,1.2018710886570276e-12,-7.129286327962839e-13,-3.0235666089136315e-13,1.4110836698015848e-13,-8.931559756881003e-13,0.0,0.0,0.0,0.0,0.0
5619128000000,280935,5619128000000,,end,joint2,joint4,joint6,motortom2m,-7.522450814967385e-05,6.260665375901198e-05,0.0001080859591322536,5.031883254513758e-05,0.00012013645478958779,1.2018710880135703e-12,-7.129286338062756e-13,-3.0235666186861707e-13,1.411083661111168e-13,-8.931559766382451e-13,0.0,0.0,0.0,0.0,0.0
5619148000000,280936,5619148000000,,end,joint2,joint4,joint6,motortom2m,-7.522450814967385e-05,6.260665375901198e-05,0.00010808595913136543,5.031883254602576e-05,0.00012013645478869961,1.2018710873144395e-12,-7.129286350075342e-13,-3.0235666301612983e-13,1.4110836510732606e-13,-8.93155977775273e-13,0.0,0.0,0.0,0.0,0.0
5619168000000,280937,5619168000000,,end,joint2,joint4,joint6,motortom2m,-7.522450814967385e-05,6.260665375901198e-05,0.0001080859591322536,5.031883254602576e-05,0.00012013645478958779,1.2018710905439483e-12,-7.129286296014843e-13,-3.0235665783310336e-13,1.4110836966232312e-13,-8.93155972667513e-13,0.0,0.0,0.0,0.0,0.0
5619188000000,280938,5619188000000,,end,joint2,joint4,joint6,motortom2m,-7.522450814967385e-05,6.260665375990015e-05,0.00010808595913314178,5.031883254602576e-05,0.00012013645478869961,1.201871090311858e-12,-7.129286301002892e-13,-3.0235665829605207e-13,1.411083692727776e-13,-8.931559731463893e-13,0.0,0.0,0.0,0.0,0.0
5619208000000,280939,5619208000000,,end,joint2,joint4,joint6,motortom2m,-7.522450814967385e-05,6.260665375990015e-05,0.00010808595913047725,5.031883254602576e-05,0.00012013645478958779,1.2018710889963045e-12,-7.129286322656913e-13,-3.0235666037676735e-13,1.4110836743872633e-13,-8.931559751901595e-13,0.0,0.0,0.0,0.0,0.0
5619228000000,280940,5619228000000,,end,joint2,joint4,joint6,motortom2m,-7.522450815056203e-05,6.260665375990015e-05,0.00010808595913047725,5.031883254602576e-05,0.00012013645479047597,1.2018710898346785e-12,-7.129286308199948e-13,-3.023566589971876e-13,1.4110836864405935e-13,-8.931559738206693e-13,0.0,0.0,0.0,0.0,0.0
5619248000000,280941,5619248000000,,end,joint2,joint4,joint6,motortom2m,-7.513490391808375e-05,6.261345184466194e-05,0.00010800617230266596,5.025946504311207e-05,0.00012017920131146553,1.2018780244295204e-12,-7.129346756979929e-13,-3.0234945452688313e-13,1.41125761766891e-13,-8.931617680900499e-13,0.0,0.0,0.0,0.0,0.0
5619268000000,280942,5619268000000,,end,joint2,joint4,joint6,motortom2m,-6.448472407249994e-05,6.342145867943572e-05,9.852286937217514e-05,4.320316235872923e-05,0.000125259967424185,1.202565714450484e-12,-7.14001542516675e-13,-3.0178920427089204e-13,1.429661894647375e-13,-8.942076618722157e-13,0.0,0.0,0.0,0.0,0.0
5619288000000,280943,5619288000000,,end,joint2,joint4,joint6,motortom2m,-1.521340899834911e-05,6.715957013536666e-05,5.464991948933573e-05,1.0558332149024352e-05,0.00014876530082030825,1.2056508789672442e-12,-7.191837460737419e-13,-2.994066460145989e-13,1.5132033922905083e-13,-8.992991791262529e-13,0.0,0.0,0.0,0.0,0.0
5619308000000,280944,5619308000000,,end,joint2,joint4,joint6,motortom2m,9.791813972093166e-05,7.57426237392167e-05,-4.608647773896024e-05,-6.439725192919354e-05,0.00020273574520945914,1.2126608740498634e-12,-7.312715745857777e-13,-2.940965600402114e-13,1.703793823928237e-13,-9.111836605467526e-13,0.0,0.0,0.0,0.0,0.0
5619328000000,280945,5619328000000,,end,joint2,joint4,joint6,motortom2m,0.0002951421279906441,9.070559456603178e-05,-0.00022170180564895503,-0.0001950684873364139,0.00029682326024360606,1.2248188629718106e-12,-7.525047297808695e-13,-2.8497549734058635e-13,2.0350110591288767e-13,-9.320664521294344e-13,0.0,0.0,0.0,0.0,0.0
5619348000000,280946,5619348000000,,end,joint2,joint4,joint6,motortom2m,0.0005920196338529138,0.00011322906900979035,-0.00048605220743525024,-0.000391765404360811,0.00043845140112708236,1.2430642386608137e-12,-7.846091145974357e-13,-2.7136680436650395e-13,2.5326586640599595e-13,-9.636471118576264e-13,0.0,0.0,0.0,0.0,0.0
5619368000000,280947,5619368000000,,end,joint2,joint4,joint6,motortom2m,0.0009997763722502384,0.00014416471854605817,-0.0008491334631646197,-0.0006619256278677099,0.000632975498278121,1.2680730220251818e-12,-8.2883366970669e-13,-2.5278569640598154e-13,3.2153250022238554e-13,-1.0071556625295174e-12,0.0,0.0,0.0,0.0,0.0
5619388000000,280948,5619388000000,,end,joint2,joint4,joint6,motortom2m,0.001525638459605183,0.00018406077348931404,-0.0013173799666272856,-0.001010336838954018,0.0008838428369015716,1.300278279149428e-12,-8.859871767589056e-13,-2.2892430257706974e-13,4.094942551720792e-13,-1.0633888129875148e-12,0.0,0.0,0.0,0.0,0.0
5619408000000,280949,5619408000000,,end,joint2,joint4,joint6,motortom2m,0.0021731681786540946,0.00023318749676892736,-0.0018939637024084632,-0.0014393592367545338,0.001192752836701061,1.3398905445661215e-12,-9.56475063518641e-13,-1.996367147747312e-13,5.177347171185193e-13,-1.1327461814952754e-12,0.0,0.0,0.0,0.0,0.0
5619428000000,280950,5619428000000,,end,joint2,joint4,joint6,motortom2m,0.002942599742987717,0.00029156265768026657,-0.002579093222704998,-0.00194914800005197,0.0015598172314144065,1.3869182636259486e-12,-1.0403362019127651e-12,-1.6492402812073755e-13,6.462837463077197e-13,-1.2152665136738587e-12,0.0,0.0,0.0,0.0,0.0
5619448000000,280951,5619448000000,,end,joint2,joint4,joint6,motortom2m,0.003831175061780101,0.0003589770056491304,-0.0033703126243160852,-0.0025378757490317483,0.001983720248488474,1.4411882005646715e-12,-1.1372797656836187e-12,-1.2491943852531492e-13,7.946733630144353e-13,-1.3106639574074436e-12,0.0,0.0,0.0,0.0,0.0
5619468000000,280952,5619468000000,,end,joint2,joint4,joint6,motortom2m,0.004833479504627647,0.00043501974400683707,-0.004262800525714816,-0.0032019550070883085,0.002461878788749594,1.5023659263731556e-12,-1.2467219829743156e-12,-7.98732320948113e-14,9.619937354481312e-13,-1.418364240110252e-12,0.0,0.0,0.0,0.0,0.0
5619488000000,280953,5619488000000,,end,joint2,joint4,joint6,motortom2m,0.005941777665943171,0.0005191040037431094,-0.005249669043731586,-0.003936260662344537,0.0029906026059229873,1.569976244868495e-12,-1.3678230227964557e-12,-3.013789095111596e-14,1.1469490764261962e-12,-1.5375409750786751e-12,0.0,0.0,0.0,0.0,0.0
5619508000000,280954,5619508000000,,end,joint2,joint4,joint6,motortom2m,0.007146349130004559,0.0006104923172749466,-0.006322262770832587,-0.004734352429609068,0.0035652544864053226,1.6434236349473693e-12,-1.4995238637911448e-12,2.384682795027085e-14,1.3479135716527392e-12,-1.6671519532891142e-12,0.0,0.0,0.0,0.0,0.0
5619528000000,280955,5619528000000,,end,joint2,joint4,joint6,motortom2m,0.00843582423524225,0.0007083220921995093,-0.0074704577516993,-0.005588697311823765,0.004180410428720194,1.7220127901008306e-12,-1.640583045331685e-12,8.156894779718837e-14,1.5629874456397268e-12,-1.8059753267516711e-12,0.0,0.0,0.0,0.0,0.0
5619548000000,280956,5619548000000,,end,joint2,joint4,joint6,motortom2m,0.009797519839366942,0.0008116310850798669,-0.008682960460570044,-0.006490892062069875,0.004830019823348408,1.8049690406270763e-12,-1.789613628384635e-12,1.424591399854456e-13,1.7900528749249865e-12,-1.9526459931903106e-12,0.0,0.0,0.0,0.0,0.0
5619568000000,280957,5619568000000,,end,joint2,joint4,joint6,motortom2m,0.0112177750835869,0.0009193828751774547,-0.009947606777773288,-0.007431885644970215,0.005507565632133726,1.8914588420943112e-12,-1.9451200643932085e-12,2.0590569579970066e-13,2.0268300061507524e-12,-2.105691895728597e-12,0.0,0.0,0.0,0.0,0.0
5619588000000,280958,5619588000000,,end,joint2,joint4,joint6,motortom2m,0.012682287157796068,0.0010304923382538078,-0.011251660967104726,-0.008402201698734402,0.006206224568146013,1.9806102860697774e-12,-2.105535049212206e-12,2.712695282306561e-13,2.2709330157047275e-12,-2.2635703097535382e-12,0.0,0.0,0.0,0.0,0.0
5619608000000,280959,5619608000000,,end,joint2,joint4,joint6,motortom2m,0.014176447064738973,0.0011438511202914725,-0.012582114652326837,-0.009392160996531729,0.0069190272750701,2.071533586070204e-12,-2.26925638793476e-12,3.378991601354573e-13,2.519926152014639e-12,-2.4247041404725106e-12,0.0,0.0,0.0,0.0,0.0
5619628000000,280960,5619628000000,,end,joint2,joint4,joint6,motortom2m,0.015685675385242348,0.0012583531113001811,-0.01392598579457971,-0.010392103908556827,0.007639018507080486,2.1633415295686817e-12,-2.434683921991361e-12,4.051456565961281e-13,2.7713797337945266e-12,-2.587518278292828e-12,0.0,0.0,0.0,0.0,0.0
5619648000000,280961,5619648000000,,end,joint2,joint4,joint6,motortom2m,0.017195758042348963,0.0013729199190359864,-0.015270617668852182,-0.011392612863386553,0.0083594173082151,2.2551699495524775e-12,-2.60025639324792e-12,4.723776077842788e-13,3.0229261839725167e-12,-2.7504758917501334e-12,0.0,0.0,0.0,0.0,0.0
5619668000000,280962,5619668000000,,end,joint2,joint4,joint6,motortom2m,0.01869318206656434,0.0014865263428127662,-0.016603977841413098,-0.012384734810058973,0.009073777192262433,2.34619822183685e-12,-2.764488203697569e-12,5.389961876583419e-13,3.272316107135518e-12,-2.912114617747894e-12,0.0,0.0,0.0,0.0,0.0
5619688000000,280963,5619688000000,,end,joint2,joint4,joint6,motortom2m,0.020165471359989695,0.0015982258472186928,-0.017914957146270005,-0.013360203679422256,0.009776146322135304,2.4356695529551237e-12,-2.9260064708585255e-12,6.044499005373433e-13,3.51747406624014e-12,-3.0710830273494264e-12,0.0,0.0,0.0,0.0,0.0
5619708000000,280964,5619708000000,,end,joint2,joint4,joint6,motortom2m,0.02160152246156244,0.0017071760359250732,-0.01919366866260308,-0.01431166284621277,0.01046122768974822,2.522911595963795e-12,-3.0835874928446304e-12,6.682498730185604e-13,3.756554823485761e-12,-3.2261765251867674e-12,0.0,0.0,0.0,0.0,0.0
5619728000000,280965,5619728000000,,end,joint2,joint4,joint6,motortom2m,0.022991940311198,0.0018126641254019304,-0.0204317466912336,-0.015232887590414634,0.011124539295400915,2.6073566570341654e-12,-3.2361938285465744e-12,7.299845164570695e-13,3.987998990908809e-12,-3.3763738257491674e-12,0.0,0.0,0.0,0.0,0.0
5619748000000,280966,5619748000000,,end,joint2,joint4,joint6,motortom2m,0.024329374015015226,0.001914132418733061,-0.021622645732033874,-0.016119007559320053,0.011762574327651265,2.688562099893077e-12,-3.383010929714684e-12,7.893345664868155e-13,4.210588960583331e-12,-3.520873000692493e-12,0.0,0.0,0.0,0.0,0.0
5619768000000,280967,5619768000000,,end,joint2,joint4,joint6,motortom2m,0.025608852609506627,0.0020112037793280635,-0.022761939460431257,-0.016966729228910182,0.012372961342699718,2.7662307768110183e-12,-3.5234837515863466e-12,8.460881410728239e-13,4.423504857801352e-12,-3.659127496999266e-12,0.0,0.0,0.0,0.0,0.0
